{
  "stations": {
    "Chicago": {
      "station_id": "USW00094846",
      "station_name": "Chicago",
      "full_name": "Chicago/O'Hare International Airport",
      "latitude": "41.995",
      "longitude": "-87.934",
      "climate_region": "Midwest",
      "utc_offset": "-6/-5",
      "solar_time": "CST/CDT",
      "civil_time": "CST/CDT",
      "is_default": true,
      "date_added": "2026-02-13T00:00:00"
    },
    "Cincinnati": {
      "station_id": "USW00093814",
      "station_name": "Cincinnati",
      "full_name": "Cincinnati/Northern Kentucky International Airport",
      "latitude": "39.046",
      "longitude": "-84.678",
      "climate_region": "Midwest",
      "utc_offset": "-5/-4",
      "solar_time": "EST/EDT",
      "civil_time": "EST/EDT",
      "is_default": true,
      "date_added": "2026-02-13T00:00:00"
    },
    "Kansas City": {
      "station_id": "USW00003947",
      "station_name": "Kansas City",
      "full_name": "Kansas City International Airport",
      "latitude": "39.297",
      "longitude": "-94.713",
      "climate_region": "Midwest",
      "utc_offset": "-6/-5",
      "solar_time": "CST/CDT",
      "civil_time": "CST/CDT",
      "is_default": true,
      "date_added": "2026-02-13T00:00:00"
    },
    "Minneapolis": {
      "station_id": "USW00014922",
      "station_name": "Minneapolis",
      "full_name": "Minneapolis-St. Paul International Airport",
      "latitude": "44.882",
      "longitude": "-93.222",
      "climate_region": "Upper Midwest",
      "utc_offset": "-6/-5",
      "solar_time": "CST/CDT",
      "civil_time": "CST/CDT",
      "is_default": true,
      "date_added": "2026-02-13T00:00:00"
    },
    "Boston": {
      "station_id": "USW00014739",
      "station_name": "Boston",
      "full_name": "Boston Logan International Airport",
      "latitude": "42.365",
      "longitude": "-71.009",
      "climate_region": "Northeast",
      "utc_offset": "-5/-4",
      "solar_time": "EST/EDT",
      "civil_time": "EST/EDT",
      "is_default": true,
      "date_added": "2026-02-13T00:00:00"
    },
    "DC": {
      "station_id": "USW00093738",
      "station_name": "DC",
      "full_name": "Washington Dulles International Airport",
      "latitude": "38.852",
      "longitude": "-77.038",
      "climate_region": "Mid-Atlantic",
      "utc_offset": "-5/-4",
      "solar_time": "EST/EDT",
      "civil_time": "EST/EDT",
      "is_default": true,
      "date_added": "2026-02-13T00:00:00"
    },
    "Denver": {
      "station_id": "USW00093067",
      "station_name": "Denver",
      "full_name": "Denver International Airport",
      "latitude": "39.861",
      "longitude": "-104.673",
      "climate_region": "Mountain",
      "utc_offset": "-7/-6",
      "solar_time": "MST/MDT",
      "civil_time": "MST/MDT",
      "is_default": true,
      "date_added": "2026-02-13T00:00:00"
    },
    "Seattle": {
      "station_id": "USW00024234",
      "station_name": "Seattle",
      "full_name": "Seattle-Tacoma International Airport",
      "latitude": "47.449",
      "longitude": "-122.309",
      "climate_region": "Pacific Northwest",
      "utc_offset": "-8/-7",
      "solar_time": "PST/PDT",
      "civil_time": "PST/PDT",
      "is_default": true,
      "date_added": "2026-02-13T00:00:00"
    },
    "San Francisco": {
      "station_id": "USW00023234",
      "station_name": "San Francisco",
      "full_name": "San Francisco International Airport",
      "latitude": "37.615",
      "longitude": "-122.409",
      "climate_region": "Pacific",
      "utc_offset": "-8/-7",
      "solar_time": "PST/PDT",
      "civil_time": "PST/PDT",
      "is_default": true,
      "date_added": "2026-02-13T00:00:00"
    },
    "Salt Lake City": {
      "station_id": "USW00024127",
      "station_name": "Salt Lake City",
      "full_name": "Salt Lake City International Airport",
      "latitude": "40.787",
      "longitude": "-111.864",
      "climate_region": "Mountain",
      "utc_offset": "-7/-6",
      "solar_time": "MST/MDT",
      "civil_time": "MST/MDT",
      "is_default": true,
      "date_added": "2026-02-13T00:00:00"
    },
    "Atlanta": {
      "station_id": "USW00013874",
      "station_name": "Atlanta",
      "full_name": "Hartsfield-Jackson Atlanta International Airport",
      "latitude": "33.648",
      "longitude": "-84.427",
      "climate_region": "Southeast",
      "utc_offset": "-5/-4",
      "solar_time": "EST/EDT",
      "civil_time": "EST/EDT",
      "is_default": true,
      "date_added": "2026-02-13T00:00:00"
    },
    "Miami": {
      "station_id": "USW00012839",
      "station_name": "Miami",
      "full_name": "Miami International Airport",
      "latitude": "25.795",
      "longitude": "-80.287",
      "climate_region": "Southeast",
      "utc_offset": "-5/-4",
      "solar_time": "EST/EDT",
      "civil_time": "EST/EDT",
      "is_default": true,
      "date_added": "2026-02-13T00:00:00"
    },
    "Dallas": {
      "station_id": "USW00003927",
      "station_name": "Dallas",
      "full_name": "Dallas-Fort Worth International Airport",
      "latitude": "32.897",
      "longitude": "-97.038",
      "climate_region": "South-Central",
      "utc_offset": "-6/-5",
      "solar_time": "CST/CDT",
      "civil_time": "CST/CDT",
      "is_default": true,
      "date_added": "2026-02-13T00:00:00"
    },
    "Houston": {
      "station_id": "USW00012960",
      "station_name": "Houston",
      "full_name": "William P. Hobby Airport",
      "latitude": "29.645",
      "longitude": "-95.279",
      "climate_region": "South-Central",
      "utc_offset": "-6/-5",
      "solar_time": "CST/CDT",
      "civil_time": "CST/CDT",
      "is_default": true,
      "date_added": "2026-02-13T00:00:00"
    },
    "Phoenix": {
      "station_id": "USW00023183",
      "station_name": "Phoenix",
      "full_name": "Phoenix Sky Harbor International Airport",
      "latitude": "33.435",
      "longitude": "-112.008",
      "climate_region": "Southwest",
      "utc_offset": "-7",
      "solar_time": "MST",
      "civil_time": "MST",
      "is_default": true,
      "date_added": "2026-02-13T00:00:00"
    },
    "San Diego": {
      "station_id": "USW00023188",
      "station_name": "San Diego",
      "full_name": "San Diego International Airport",
      "latitude": "32.734",
      "longitude": "-117.190",
      "climate_region": "Pacific",
      "utc_offset": "-8/-7",
      "solar_time": "PST/PDT",
      "civil_time": "PST/PDT",
      "is_default": true,
      "date_added": "2026-02-13T00:00:00"
    },
    "Madison": {
      "station_id": "USW00014837",
      "station_name": "Madison",
      "full_name": "Dane County Regional Airport",
      "latitude": "43.140",
      "longitude": "-89.337",
      "climate_region": "Upper Midwest",
      "utc_offset": "-6/-5",
      "solar_time": "CST/CDT",
      "civil_time": "CST/CDT",
      "is_default": true,
      "date_added": "2026-02-13T00:00:00"
    },
    "New York": {
      "station_id": "USW00094789",
      "station_name": "New York",
      "full_name": "New York John F. Kennedy International Airport",
      "latitude": "40.640",
      "longitude": "-73.778",
      "climate_region": "Northeast",
      "utc_offset": "-5/-4",
      "solar_time": "EST/EDT",
      "civil_time": "EST/EDT",
      "is_default": true,
      "date_added": "2026-02-13T00:00:00"
    },
    "Jfk International Airport": {
      "station_id": "USW00094789",
      "station_name": "Jfk International Airport",
      "full_name": "JFK INTERNATIONAL AIRPORT, NY US",
      "latitude": "40.6386",
      "longitude": "-73.7622",
      "climate_region": "",
      "utc_offset": "-5",
      "solar_time": "-5",
      "civil_time": "",
      "is_default": false,
      "date_added": "2026-02-13T04:20:52.985255"
    },
    "Tampa International": {
      "station_id": "USW00012842",
      "station_name": "Tampa International",
      "full_name": "Tampa International Airport",
      "latitude": "27.975",
      "longitude": "-82.533",
      "climate_region": "Southeast",
      "utc_offset": "-5/-4",
      "solar_time": "EST/EDT",
      "civil_time": "EST/EDT",
      "is_default": true,
      "date_added": "2026-02-13T00:00:00"
    }
  }
}